[{
    "name": "Wyspa Tamka",
    "lat": 51.1148007,
    "lng": 17.0371877,
    "type": "techno"
}, {
    "name": "Das Lokal",
    "lat": 51.112918,
    "lng": 17.019329,
    "type": "techno"
}, {
    "name": "Klub Pralnia",
    "lat": 51.09041,
    "lng": 17.065847,
    "type": "techno"
}, {
    "name": "Bema Cafe",
    "lat": 51.1182005,
    "lng": 17.0400579,
    "type": "coffee"
}, {
    "name": "Gniazdo",
    "lat": 51.105362,
    "lng": 17.0315874,
    "type": "coffee"
}, {
    "name": "Paloma",
    "lat": 51.1094935,
    "lng": 17.028659,
    "type": "coffee"
}, {
    "name": "Etno Okrąglak",
    "lat": 51.10238529999999,
    "lng": 17.0300293,
    "type": "coffee"
}, {
    "name": "Muzeum Współczesne",
    "lat": 51.113224,
    "lng": 17.005305,
    "type": "art"
}, {
    "name": "Pawilon Czterech Kopuł",
    "lat": 51.108099,
    "lng": 17.075851,
    "type": "art"
}, {
    "name": "Muzeum Narodowe",
    "lat": 51.110833, 
    "lng": 17.047611,
    "type": "art"
}
]